{
  "LastUpdateDate": {
    "year": 2020,
    "month": 5,
    "day": 6
  },
  "characteristics_by_county": {
    "values": [
      {
        "County": "Illinois",
        "confirmed_cases": 68232,
        "total_tested": 361260,
        "deaths": 2974,
        "lat": 39.839888,
        "lon": -89.510168
      },
      {
        "County": "Adams",
        "confirmed_cases": 40,
        "deaths": 1,
        "total_tested": 1405,
        "lat": 40.057800,
        "lon": -91.135300
      },
      {
        "County": "Alexander",
        "confirmed_cases": 6,
        "deaths": 0,
        "total_tested": 58,
        "lat": 37.167000,
        "lon": -89.360600
      },
      {
        "County": "Bond",
        "confirmed_cases": 8,
        "deaths": 1,
        "total_tested": 141,
        "lat": 38.903000,
        "lon": -89.474200
      },
      {
        "County": "Boone",
        "confirmed_cases": 155,
        "deaths": 10,
        "total_tested": 627,
        "lat": 42.348500,
        "lon": -88.826300
      },
      {
        "County": "Brown",
        "confirmed_cases": 6,
        "deaths": 0,
        "total_tested": 44,
        "lat": 39.938000,
        "lon": -90.715300
      },
      {
        "County": "Bureau",
        "confirmed_cases": 12,
        "deaths": 1,
        "total_tested": 330,
        "lat": 41.359900,
        "lon": -89.474200
      },
      {
        "County": "Calhoun",
        "confirmed_cases": 1,
        "deaths": 0,
        "total_tested": 29,
        "lat": 39.173300,
        "lon": -90.658300
      },
      {
        "County": "Carroll",
        "confirmed_cases": 10,
        "deaths": 2,
        "total_tested": 90,
        "lat": 42.038600,
        "lon": -89.962700
      },
      {
        "County": "Cass",
        "confirmed_cases": 48,
        "deaths": 0,
        "total_tested": 462,
        "lat": 39.939900,
        "lon": -90.262000
      },
      {
        "County": "Champaign",
        "confirmed_cases": 212,
        "deaths": 6,
        "total_tested": 4158,
        "lat": 40.213900,
        "lon": -88.246100
      },
      {
        "County": "Chicago",
        "confirmed_cases": 27440,
        "deaths": 1112,
        "total_tested": 112588,
        "lat": 41.789896,
        "lon": -87.627734
      },
      {
        "County": "Christian",
        "confirmed_cases": 28,
        "deaths": 4,
        "total_tested": 410,
        "lat": 39.567200,
        "lon": -89.322700
      },
      {
        "County": "Clark",
        "confirmed_cases": 5,
        "deaths": 0,
        "total_tested": 103,
        "lat": 39.382400,
        "lon": -87.776300
      },
      {
        "County": "Clay",
        "confirmed_cases": 2,
        "deaths": 0,
        "total_tested": 135,
        "lat": 38.727900,
        "lon": -88.556500
      },
      {
        "County": "Clinton",
        "confirmed_cases": 116,
        "deaths": 7,
        "total_tested": 536,
        "lat": 38.568400,
        "lon": -89.625200
      },
      {
        "County": "Coles",
        "confirmed_cases": 22,
        "deaths": 1,
        "total_tested": 414,
        "lat": 39.556000,
        "lon": -88.246100
      },
      {
        "County": "Cook",
        "confirmed_cases": 19249,
        "deaths": 892,
        "total_tested": 85360,
        "lat": 42.050784,
        "lon": -87.963759
      },
      {
        "County": "Crawford",
        "confirmed_cases": 10,
        "deaths": 0,
        "total_tested": 186,
        "lat": 41.833000,
        "lon": -88.710900
      },
      {
        "County": "Cumberland",
        "confirmed_cases": 4,
        "deaths": 0,
        "total_tested": 68,
        "lat": 39.265400,
        "lon": -88.207200
      },
      {
        "County": "De Witt",
        "confirmed_cases": 3,
        "deaths": 0,
        "total_tested": 251,
        "lat": 40.181000,
        "lon": -88.903100
      },
      {
        "County": "DeKalb",
        "confirmed_cases": 141,
        "deaths": 1,
        "total_tested": 1232,
        "lat": 41.833000,
        "lon": -88.710900
      },
      {
        "County": "Douglas",
        "confirmed_cases": 20,
        "deaths": 0,
        "total_tested": 264,
        "lat": 39.761800,
        "lon": -88.207200
      },
      {
        "County": "DuPage",
        "confirmed_cases": 4056,
        "deaths": 220,
        "total_tested": 21824,
        "lat": 41.824400,
        "lon": -88.090100
      },
      {
        "County": "Edgar",
        "confirmed_cases": 0,
        "deaths": 0,
        "total_tested": 120,
        "lat": 39.713100,
        "lon": -87.776300
      },
      {
        "County": "Edwards",
        "confirmed_cases": 0,
        "deaths": 0,
        "total_tested": 63,
        "lat": 38.426800,
        "lon": -88.051000
      },
      {
        "County": "Effingham",
        "confirmed_cases": 5,
        "deaths": 1,
        "total_tested": 149,
        "lat": 39.062200,
        "lon": -88.556500
      },
      {
        "County": "Fayette",
        "confirmed_cases": 16,
        "deaths": 2,
        "total_tested": 174,
        "lat": 39.067000,
        "lon": -89.017900
      },
      {
        "County": "Ford",
        "confirmed_cases": 11,
        "deaths": 1,
        "total_tested": 207,
        "lat": 40.498900,
        "lon": -88.207200
      },
      {
        "County": "Franklin",
        "confirmed_cases": 10,
        "deaths": 0,
        "total_tested": 585,
        "lat": 38.015700,
        "lon": -88.903100
      },
      {
        "County": "Fulton",
        "confirmed_cases": 3,
        "deaths": 0,
        "total_tested": 198,
        "lat": 40.553200,
        "lon": -90.224500
      },
      {
        "County": "Gallatin",
        "confirmed_cases": 2,
        "deaths": 0,
        "total_tested": 40,
        "lat": 37.710800,
        "lon": -88.246100
      },
      {
        "County": "Greene",
        "confirmed_cases": 3,
        "deaths": 0,
        "total_tested": 99,
        "lat": 39.403000,
        "lon": -90.374800
      },
      {
        "County": "Grundy",
        "confirmed_cases": 48,
        "deaths": 0,
        "total_tested": 733,
        "lat": 41.350100,
        "lon": -88.401600
      },
      {
        "County": "Hamilton",
        "confirmed_cases": 2,
        "deaths": 0,
        "total_tested": 74,
        "lat": 38.054300,
        "lon": -88.556500
      },
      {
        "County": "Hancock",
        "confirmed_cases": 10,
        "deaths": 0,
        "total_tested": 278,
        "lat": 40.384900,
        "lon": -91.135300
      },
      {
        "County": "Hardin",
        "confirmed_cases": 1,
        "deaths": 0,
        "total_tested": 22,
        "lat": 37.499500,
        "lon": -88.362800
      },
      {
        "County": "Henderson",
        "confirmed_cases": 5,
        "deaths": 0,
        "total_tested": 75,
        "lat": 40.833600,
        "lon": -90.943800
      },
      {
        "County": "Henry",
        "confirmed_cases": 54,
        "deaths": 0,
        "total_tested": 636,
        "lat": 41.361100,
        "lon": -90.074700
      },
      {
        "County": "Iroquois",
        "confirmed_cases": 62,
        "deaths": 1,
        "total_tested": 415,
        "lat": 40.774000,
        "lon": -87.697600
      },
      {
        "County": "Jackson",
        "confirmed_cases": 154,
        "deaths": 9,
        "total_tested": 976,
        "lat": 37.721800,
        "lon": -89.322700
      },
      {
        "County": "Jasper",
        "confirmed_cases": 46,
        "deaths": 5,
        "total_tested": 238,
        "lat": 39.055500,
        "lon": -88.090100
      },
      {
        "County": "Jefferson",
        "confirmed_cases": 86,
        "deaths": 15,
        "total_tested": 692,
        "lat": 38.226700,
        "lon": -88.864700
      },
      {
        "County": "Jersey",
        "confirmed_cases": 15,
        "deaths": 1,
        "total_tested": 120,
        "lat": 39.070500,
        "lon": -90.374800
      },
      {
        "County": "Jo Daviess",
        "confirmed_cases": 14,
        "deaths": 0,
        "total_tested": 267,
        "lat": 42.314900,
        "lon": -90.224500
      },
      {
        "County": "Johnson",
        "confirmed_cases": 4,
        "deaths": 0,
        "total_tested": 95,
        "lat": 37.420400,
        "lon": -88.903100
      },
      {
        "County": "Kane",
        "confirmed_cases": 2331,
        "deaths": 74,
        "total_tested": 9527,
        "lat": 41.987900,
        "lon": -88.401600
      },
      {
        "County": "Kankakee",
        "confirmed_cases": 416,
        "deaths": 27,
        "total_tested": 3185,
        "lat": 41.179100,
        "lon": -87.776300
      },
      {
        "County": "Kendall",
        "confirmed_cases": 346,
        "deaths": 10,
        "total_tested": 1827,
        "lat": 41.550700,
        "lon": -88.440400
      },
      {
        "County": "Knox",
        "confirmed_cases": 61,
        "deaths": 0,
        "total_tested": 714,
        "lat": 40.877600,
        "lon": -90.224500
      },
      {
        "County": "Lake",
        "confirmed_cases": 4529,
        "deaths": 162,
        "total_tested": 16198,
        "lat": 42.368900,
        "lon": -87.827200
      },
      {
        "County": "LaSalle",
        "confirmed_cases": 84,
        "deaths": 2,
        "total_tested": 1417,
        "lat": 41.436400,
        "lon": -88.941400
      },
      {
        "County": "Lawrence",
        "confirmed_cases": 3,
        "deaths": 0,
        "total_tested": 157,
        "lat": 38.715800,
        "lon": -87.776300
      },
      {
        "County": "Lee",
        "confirmed_cases": 49,
        "deaths": 0,
        "total_tested": 606,
        "lat": 41.679000,
        "lon": -89.322700
      },
      {
        "County": "Livingston",
        "confirmed_cases": 23,
        "deaths": 1,
        "total_tested": 461,
        "lat": 40.868900,
        "lon": -88.556500
      },
      {
        "County": "Logan",
        "confirmed_cases": 7,
        "deaths": 0,
        "total_tested": 481,
        "lat": 40.061300,
        "lon": -89.322700
      },
      {
        "County": "Macon",
        "confirmed_cases": 129,
        "deaths": 13,
        "total_tested": 1214,
        "lat": 39.894900,
        "lon": -89.017900
      },
      {
        "County": "Macoupin",
        "confirmed_cases": 39,
        "deaths": 1,
        "total_tested": 707,
        "lat": 39.237500,
        "lon": -89.925300
      },
      {
        "County": "Madison",
        "confirmed_cases": 374,
        "deaths": 28,
        "total_tested": 2267,
        "lat": 38.904100,
        "lon": -89.925300
      },
      {
        "County": "Marion",
        "confirmed_cases": 38,
        "deaths": 0,
        "total_tested": 701,
        "lat": 38.731300,
        "lon": -88.864700
      },
      {
        "County": "Marshall",
        "confirmed_cases": 4,
        "deaths": 0,
        "total_tested": 88,
        "lat": 40.997300,
        "lon": -89.360600
      },
      {
        "County": "Mason",
        "confirmed_cases": 15,
        "deaths": 0,
        "total_tested": 178,
        "lat": 40.227100,
        "lon": -89.925300
      },
      {
        "County": "Massac",
        "confirmed_cases": 4,
        "deaths": 0,
        "total_tested": 92,
        "lat": 37.247800,
        "lon": -88.749400
      },
      {
        "County": "McDonough",
        "confirmed_cases": 42,
        "deaths": 2,
        "total_tested": 361,
        "lat": 40.388500,
        "lon": -90.677300
      },
      {
        "County": "McHenry",
        "confirmed_cases": 814,
        "deaths": 42,
        "total_tested": 4573,
        "lat": 42.304000,
        "lon": -88.401600
      },
      {
        "County": "McLean",
        "confirmed_cases": 108,
        "deaths": 3,
        "total_tested": 3043,
        "lat": 40.547800,
        "lon": -88.864700
      },
      {
        "County": "Menard",
        "confirmed_cases": 16,
        "deaths": 0,
        "total_tested": 224,
        "lat": 40.022100,
        "lon": -89.813000
      },
      {
        "County": "Mercer",
        "confirmed_cases": 10,
        "deaths": 0,
        "total_tested": 163,
        "lat": 41.198500,
        "lon": -90.677300
      },
      {
        "County": "Monroe",
        "confirmed_cases": 74,
        "deaths": 11,
        "total_tested": 283,
        "lat": 38.274300,
        "lon": -90.187000
      },
      {
        "County": "Montgomery",
        "confirmed_cases": 33,
        "deaths": 1,
        "total_tested": 590,
        "lat": 39.236400,
        "lon": -89.474200
      },
      {
        "County": "Morgan",
        "confirmed_cases": 26,
        "deaths": 1,
        "total_tested": 458,
        "lat": 39.734100,
        "lon": -90.224500
      },
      {
        "County": "Moultrie",
        "confirmed_cases": 6,
        "deaths": 0,
        "total_tested": 78,
        "lat": 39.602100,
        "lon": -88.595200
      },
      {
        "County": "Ogle",
        "confirmed_cases": 137,
        "deaths": 1,
        "total_tested": 1314,
        "lat": 41.997000,
        "lon": -89.322700
      },
      {
        "County": "Out Of State",
        "confirmed_cases": 68,
        "deaths": 4,
        "total_tested": 986,
        "lat": 0.000000,
        "lon": 0.000000
      },
      {
        "County": "Peoria",
        "confirmed_cases": 126,
        "deaths": 4,
        "total_tested": 2628,
        "lat": 40.715600,
        "lon": -89.775500
      },
      {
        "County": "Perry",
        "confirmed_cases": 35,
        "deaths": 0,
        "total_tested": 381,
        "lat": 38.061200,
        "lon": -89.322700
      },
      {
        "County": "Piatt",
        "confirmed_cases": 7,
        "deaths": 0,
        "total_tested": 238,
        "lat": 40.054400,
        "lon": -88.855650
      },
      {
        "County": "Pike",
        "confirmed_cases": 1,
        "deaths": 0,
        "total_tested": 90,
        "lat": 39.566200,
        "lon": -90.829400
      },
      {
        "County": "Pope",
        "confirmed_cases": 0,
        "deaths": 0,
        "total_tested": 24,
        "lat": 37.417100,
        "lon": -88.595200
      },
      {
        "County": "Pulaski",
        "confirmed_cases": 23,
        "deaths": 0,
        "total_tested": 81,
        "lat": 37.251200,
        "lon": -89.132500
      },
      {
        "County": "Putnam",
        "confirmed_cases": 0,
        "deaths": 0,
        "total_tested": 48,
        "lat": 41.238500,
        "lon": -89.284700
      },
      {
        "County": "Randolph",
        "confirmed_cases": 203,
        "deaths": 2,
        "total_tested": 957,
        "lat": 38.062900,
        "lon": -89.775500
      },
      {
        "County": "Richland",
        "confirmed_cases": 3,
        "deaths": 0,
        "total_tested": 360,
        "lat": 38.062900,
        "lon": -89.775500
      },
      {
        "County": "Rock Island",
        "confirmed_cases": 465,
        "deaths": 14,
        "total_tested": 1996,
        "lat": 41.509500,
        "lon": -90.578700
      },
      {
        "County": "Saline",
        "confirmed_cases": 4,
        "deaths": 0,
        "total_tested": 226,
        "lat": 37.715000,
        "lon": -88.556500
      },
      {
        "County": "Sangamon",
        "confirmed_cases": 231,
        "deaths": 14,
        "total_tested": 4304,
        "lat": 39.733700,
        "lon": -89.625200
      },
      {
        "County": "Schuyler",
        "confirmed_cases": 2,
        "deaths": 0,
        "total_tested": 111,
        "lat": 40.184500,
        "lon": -90.639400
      },
      {
        "County": "Scott",
        "confirmed_cases": 0,
        "deaths": 0,
        "total_tested": 60,
        "lat": 39.609500,
        "lon": -90.488000
      },
      {
        "County": "Shelby",
        "confirmed_cases": 10,
        "deaths": 1,
        "total_tested": 121,
        "lat": 39.398100,
        "lon": -88.864700
      },
      {
        "County": "St. Clair",
        "confirmed_cases": 601,
        "deaths": 42,
        "total_tested": 3066,
        "lat": 38.400800,
        "lon": -89.925300
      },
      {
        "County": "Stark",
        "confirmed_cases": 1,
        "deaths": 0,
        "total_tested": 42,
        "lat": 41.079600,
        "lon": -89.813000
      },
      {
        "County": "Stephenson",
        "confirmed_cases": 72,
        "deaths": 0,
        "total_tested": 436,
        "lat": 42.314500,
        "lon": -89.625200
      },
      {
        "County": "Tazewell",
        "confirmed_cases": 53,
        "deaths": 3,
        "total_tested": 1903,
        "lat": 40.552200,
        "lon": -89.474200
      },
      {
        "County": "Unassigned",
        "confirmed_cases": 105,
        "deaths": 0,
        "total_tested": 7299,
        "lat": 39.839888,
        "lon": -89.510168
      },
      {
        "County": "Union",
        "confirmed_cases": 48,
        "deaths": 1,
        "total_tested": 348,
        "lat": 37.508700,
        "lon": -89.284700
      },
      {
        "County": "Vermilion",
        "confirmed_cases": 22,
        "deaths": 1,
        "total_tested": 859,
        "lat": 40.122500,
        "lon": -87.697600
      },
      {
        "County": "Wabash",
        "confirmed_cases": 1,
        "deaths": 0,
        "total_tested": 144,
        "lat": 38.422600,
        "lon": -87.815700
      },
      {
        "County": "Warren",
        "confirmed_cases": 88,
        "deaths": 0,
        "total_tested": 285,
        "lat": 40.875900,
        "lon": -90.677300
      },
      {
        "County": "Washington",
        "confirmed_cases": 15,
        "deaths": 0,
        "total_tested": 186,
        "lat": 38.398900,
        "lon": -89.322700
      },
      {
        "County": "Wayne",
        "confirmed_cases": 2,
        "deaths": 0,
        "total_tested": 173,
        "lat": 38.390000,
        "lon": -88.401600
      },
      {
        "County": "White",
        "confirmed_cases": 2,
        "deaths": 0,
        "total_tested": 171,
        "lat": 38.050100,
        "lon": -88.246100
      },
      {
        "County": "Whiteside",
        "confirmed_cases": 98,
        "deaths": 6,
        "total_tested": 1111,
        "lat": 41.760600,
        "lon": -89.850500
      },
      {
        "County": "Will",
        "confirmed_cases": 3332,
        "deaths": 189,
        "total_tested": 17222,
        "lat": 41.505500,
        "lon": -88.090100
      },
      {
        "County": "Williamson",
        "confirmed_cases": 40,
        "deaths": 0,
        "total_tested": 1007,
        "lat": 37.718300,
        "lon": -88.864700
      },
      {
        "County": "Winnebago",
        "confirmed_cases": 696,
        "deaths": 20,
        "total_tested": 4813,
        "lat": 42.312100,
        "lon": -89.170600
      },
      {
        "County": "Woodford",
        "confirmed_cases": 15,
        "deaths": 1,
        "total_tested": 387,
        "lat": 40.712900,
        "lon": -89.170600
      }
    ]
  },

  "state_testing_results": {
    "values": [
      {
        "testDate": "3/10/2020",
        "total_tested": 326,
        "confirmed_cases": 20,
        "deaths": 0
      },
      {
        "testDate": "3/11/2020",
        "total_tested": 367,
        "confirmed_cases": 25,
        "deaths": 0
      },
      {
        "testDate": "3/12/2020",
        "total_tested": 418,
        "confirmed_cases": 32,
        "deaths": 0
      },
      {
        "testDate": "3/13/2020",
        "total_tested": 444,
        "confirmed_cases": 46,
        "deaths": 0
      },
      {
        "testDate": "3/14/2020",
        "total_tested": 708,
        "confirmed_cases": 64,
        "deaths": 0
      },
      {
        "testDate": "3/15/2020",
        "total_tested": 932,
        "confirmed_cases": 93,
        "deaths": 0
      },
      {
        "testDate": "3/16/2020",
        "total_tested": 1143,
        "confirmed_cases": 105,
        "deaths": 0
      },
      {
        "testDate": "3/17/2020",
        "total_tested": 1500,
        "confirmed_cases": 160,
        "deaths": 1
      },
      {
        "testDate": "3/18/2020",
        "total_tested": 2052,
        "confirmed_cases": 288,
        "deaths": 3
      },
      {
        "testDate": "3/19/2020",
        "total_tested": 3151,
        "confirmed_cases": 422,
        "deaths": 4
      },
      {
        "testDate": "3/20/2020",
        "total_tested": 4286,
        "confirmed_cases": 585,
        "deaths": 5
      },
      {
        "testDate": "3/21/2020",
        "total_tested": 6247,
        "confirmed_cases": 753,
        "deaths": 6
      },
      {
        "testDate": "3/22/2020",
        "total_tested": 8374,
        "confirmed_cases": 1046,
        "deaths": 9
      },
      {
        "testDate": "3/23/2020",
        "total_tested": 9868,
        "confirmed_cases": 1283,
        "deaths": 12
      },
      {
        "testDate": "3/24/2020",
        "total_tested": 11485,
        "confirmed_cases": 1535,
        "deaths": 16
      },
      {
        "testDate": "3/25/2020",
        "total_tested": 14209,
        "confirmed_cases": 1865,
        "deaths": 19
      },
      {
        "testDate": "3/26/2020",
        "total_tested": 16631,
        "confirmed_cases": 2538,
        "deaths": 26
      },
      {
        "testDate": "3/27/2020",
        "total_tested": 21542,
        "confirmed_cases": 3026,
        "deaths": 34
      },
      {
        "testDate": "3/28/2020",
        "total_tested": 25429,
        "confirmed_cases": 3491,
        "deaths": 47
      },
      {
        "testDate": "3/29/2020",
        "total_tested": 27762,
        "confirmed_cases": 4596,
        "deaths": 65
      },
      {
        "testDate": "3/30/2020",
        "total_tested": 30446,
        "confirmed_cases": 5056,
        "deaths": 72
      },
      {
        "testDate": "3/31/2020",
        "total_tested": 35225,
        "confirmed_cases": 5994,
        "deaths": 99
      },
      {
        "testDate": "4/1/2020",
        "total_tested": 40384,
        "confirmed_cases": 6980,
        "deaths": 141
      },
      {
        "testDate": "4/2/2020",
        "total_tested": 43656,
        "confirmed_cases": 7695,
        "deaths": 157
      },
      {
        "testDate": "4/3/2020",
        "total_tested": 48048,
        "confirmed_cases": 8904,
        "deaths": 210
      },
      {
        "testDate": "4/4/2020",
        "total_tested": 53581,
        "confirmed_cases": 10357,
        "deaths": 243
      },
      {
        "testDate": "4/5/2020",
        "total_tested": 58983,
        "confirmed_cases": 11256,
        "deaths": 274
      },
      {
        "testDate": "4/6/2020",
        "total_tested": 62942,
        "confirmed_cases": 12262,
        "deaths": 307
      },
      {
        "testDate": "4/7/2020",
        "total_tested": 68732,
        "confirmed_cases": 13549,
        "deaths": 380
      },
      {
        "testDate": "4/8/2020",
        "total_tested": 75066,
        "confirmed_cases": 15078,
        "deaths": 462
      },
      {
        "testDate": "4/9/2020",
        "total_tested": 80857,
        "confirmed_cases": 16422,
        "deaths": 528
      },
      {
        "testDate": "4/10/2020",
        "total_tested": 87527,
        "confirmed_cases": 17887,
        "deaths": 596
      },
      {
        "testDate": "4/11/2020",
        "total_tested": 92779,
        "confirmed_cases": 19180,
        "deaths": 677
      },
      {
        "testDate": "4/12/2020",
        "total_tested": 100735,
        "confirmed_cases": 20852,
        "deaths": 720
      },
      {
        "testDate": "4/13/2020",
        "total_tested": 105768,
        "confirmed_cases": 22025,
        "deaths": 794
      },
      {
        "testDate": "4/14/2020",
        "total_tested": 110616,
        "confirmed_cases": 23247,
        "deaths": 868
      },
      {
        "testDate": "4/15/2020",
        "total_tested": 116929,
        "confirmed_cases": 24593,
        "deaths": 948
      },
      {
        "testDate": "4/16/2020",
        "total_tested": 122589,
        "confirmed_cases": 25733,
        "deaths": 1072
      },
      {
        "testDate": "4/17/2020",
        "total_tested": 130163,
        "confirmed_cases": 27575,
        "deaths": 1134
      },
      {
        "testDate": "4/18/2020",
        "total_tested": 137404,
        "confirmed_cases": 29160,
        "deaths": 1259
      },
      {
        "testDate": "4/19/2020",
        "total_tested": 143318,
        "confirmed_cases": 30357,
        "deaths": 1290
      },
      {
        "testDate": "4/20/2020",
        "total_tested": 148358,
        "confirmed_cases": 31508,
        "deaths": 1349
      },
      {
        "testDate": "4/21/2020",
        "total_tested": 154997,
        "confirmed_cases": 33059,
        "deaths": 1468
      },
      {
        "testDate": "4/22/2020",
        "total_tested": 164346,
        "confirmed_cases": 35108,
        "deaths": 1565
      },
      {
        "testDate": "4/23/2020",
        "total_tested": 173508,
        "confirmed_cases": 36934,
        "deaths": 1688
      },
      {
        "testDate": "4/24/2020",
        "total_tested": 189632,
        "confirmed_cases": 39658,
        "deaths": 1795
      },
      {
        "testDate": "4/25/2020",
        "total_tested": 201617,
        "confirmed_cases": 41777,
        "deaths": 1874
      },
      {
        "testDate": "4/26/2020",
        "total_tested": 214952,
        "confirmed_cases": 43903,
        "deaths": 1933
      },
      {
        "testDate": "4/27/2020",
        "total_tested": 227628,
        "confirmed_cases": 45883,
        "deaths": 1983
      },
      {
        "testDate": "4/28/2020",
        "total_tested": 242189,
        "confirmed_cases": 48102,
        "deaths": 2125
      },
      {
        "testDate": "4/29/2020",
        "total_tested": 256667,
        "confirmed_cases": 50355,
        "deaths": 2215
      },
      {
        "testDate": "4/30/2020",
        "total_tested": 269867,
        "confirmed_cases": 52918,
        "deaths": 2355
      },
      {
        "testDate": "5/1/2020",
        "total_tested": 284688,
        "confirmed_cases": 56055,
        "deaths": 2457
      },
      {
        "testDate": "5/2/2020",
        "total_tested": 299896,
        "confirmed_cases": 58505,
        "deaths": 2559
      },
      {
        "testDate": "5/3/2020",
        "total_tested": 319313,
        "confirmed_cases": 61499,
        "deaths": 2618
      },
      {
        "testDate": "5/4/2020",
        "total_tested": 333147,
        "confirmed_cases": 63840,
        "deaths": 2662
      },
      {
        "testDate": "5/5/2020",
        "total_tested": 346286,
        "confirmed_cases": 65962,
        "deaths": 2838
      },
      {
        "testDate": "5/6/2020",
        "total_tested": 361260,
        "confirmed_cases": 68232,
        "deaths": 2974
      }
    ]
  },
  "demographics": {
    "age": [
      {
        "age_group": "Unknown",
        "count": 48,
        "tested": 21880,
        "deaths": 0,
        "demographics": {
          "race": [
            {
              "description": "White",
              "count": 3,
              "tested": 63,
              "deaths": 0,
              "color": "rgb(31,119,180)"
            },
            {
              "description": "Black",
              "count": 1,
              "tested": 3,
              "deaths": 0,
              "color": "rgb(31,119,180)"
            },
            {
              "description": "Left Blank",
              "count": 33,
              "tested": 21759,
              "deaths": 0,
              "color": "rgb(255,127,14)"
            },
            {
              "description": "Other",
              "count": 1,
              "tested": 7,
              "deaths": 0,
              "color": "rgb(148,103,189)"
            },
            {
              "description": "Asian",
              "count": 0,
              "tested": 6,
              "deaths": 0,
              "color": "rgb(140,86,75)"
            },
            {
              "description": "Hispanic",
              "count": 10,
              "tested": 42,
              "deaths": 0,
              "color": "rgb(214,39,40)"
            },
            {
              "description": "NH/PI*",
              "count": 0,
              "tested": 0,
              "deaths": 0,
              "color": "rgb(127,127,127)"
            },
            {
              "description": "AI/AN**",
              "count": 0,
              "tested": 0,
              "deaths": 0,
              "color": "rgb(31,119,180)"
            }
          ]
        }
      },
      {
        "age_group": "<20",
        "count": 2900,
        "tested": 18400,
        "deaths": 2,
        "demographics": {
          "race": [
            {
              "description": "White",
              "count": 336,
              "tested": 4005,
              "deaths": 1,
              "color": "rgb(31,119,180)"
            },
            {
              "description": "Black",
              "count": 378,
              "tested": 2237,
              "deaths": 1,
              "color": "rgb(31,119,180)"
            },
            {
              "description": "Left Blank",
              "count": 818,
              "tested": 7872,
              "deaths": 0,
              "color": "rgb(255,127,14)"
            },
            {
              "description": "Other",
              "count": 168,
              "tested": 972,
              "deaths": 0,
              "color": "rgb(148,103,189)"
            },
            {
              "description": "Asian",
              "count": 60,
              "tested": 341,
              "deaths": 0,
              "color": "rgb(140,86,75)"
            },
            {
              "description": "Hispanic",
              "count": 1133,
              "tested": 2953,
              "deaths": 0,
              "color": "rgb(214,39,40)"
            },
            {
              "description": "NH/PI*",
              "count": 2,
              "tested": 8,
              "deaths": 0,
              "color": "rgb(127,127,127)"
            },
            {
              "description": "AI/AN**",
              "count": 5,
              "tested": 12,
              "deaths": 0,
              "color": "rgb(31,119,180)"
            }
          ]
        }
      },
      {
        "age_group": "20-29",
        "count": 9701,
        "tested": 46179,
        "deaths": 15,
        "demographics": {
          "race": [
            {
              "description": "White",
              "count": 1726,
              "tested": 9294,
              "deaths": 0,
              "color": "rgb(31,119,180)"
            },
            {
              "description": "Black",
              "count": 1569,
              "tested": 4578,
              "deaths": 7,
              "color": "rgb(31,119,180)"
            },
            {
              "description": "Left Blank",
              "count": 2661,
              "tested": 23341,
              "deaths": 1,
              "color": "rgb(255,127,14)"
            },
            {
              "description": "Other",
              "count": 449,
              "tested": 2627,
              "deaths": 0,
              "color": "rgb(148,103,189)"
            },
            {
              "description": "Asian",
              "count": 298,
              "tested": 886,
              "deaths": 0,
              "color": "rgb(140,86,75)"
            },
            {
              "description": "Hispanic",
              "count": 2981,
              "tested": 5391,
              "deaths": 7,
              "color": "rgb(214,39,40)"
            },
            {
              "description": "NH/PI*",
              "count": 7,
              "tested": 28,
              "deaths": 0,
              "color": "rgb(127,127,127)"
            },
            {
              "description": "AI/AN**",
              "count": 10,
              "tested": 34,
              "deaths": 0,
              "color": "rgb(31,119,180)"
            }
          ]
        }
      },
      {
        "age_group": "30-39",
        "count": 10939,
        "tested": 57528,
        "deaths": 45,
        "demographics": {
          "race": [
            {
              "description": "White",
              "count": 1740,
              "tested": 12080,
              "deaths": 7,
              "color": "rgb(31,119,180)"
            },
            {
              "description": "Black",
              "count": 1864,
              "tested": 5553,
              "deaths": 23,
              "color": "rgb(31,119,180)"
            },
            {
              "description": "Left Blank",
              "count": 3086,
              "tested": 29821,
              "deaths": 1,
              "color": "rgb(255,127,14)"
            },
            {
              "description": "Other",
              "count": 487,
              "tested": 3120,
              "deaths": 0,
              "color": "rgb(148,103,189)"
            },
            {
              "description": "Asian",
              "count": 384,
              "tested": 1392,
              "deaths": 1,
              "color": "rgb(140,86,75)"
            },
            {
              "description": "Hispanic",
              "count": 3345,
              "tested": 5468,
              "deaths": 12,
              "color": "rgb(214,39,40)"
            },
            {
              "description": "NH/PI*",
              "count": 17,
              "tested": 38,
              "deaths": 1,
              "color": "rgb(127,127,127)"
            },
            {
              "description": "AI/AN**",
              "count": 16,
              "tested": 56,
              "deaths": 0,
              "color": "rgb(31,119,180)"
            }
          ]
        }
      },
      {
        "age_group": "40-49",
        "count": 12349,
        "tested": 56317,
        "deaths": 103,
        "demographics": {
          "race": [
            {
              "description": "White",
              "count": 1956,
              "tested": 10851,
              "deaths": 10,
              "color": "rgb(31,119,180)"
            },
            {
              "description": "Black",
              "count": 2250,
              "tested": 6026,
              "deaths": 43,
              "color": "rgb(31,119,180)"
            },
            {
              "description": "Left Blank",
              "count": 3295,
              "tested": 29443,
              "deaths": 2,
              "color": "rgb(255,127,14)"
            },
            {
              "description": "Other",
              "count": 552,
              "tested": 2877,
              "deaths": 1,
              "color": "rgb(148,103,189)"
            },
            {
              "description": "Asian",
              "count": 406,
              "tested": 1316,
              "deaths": 5,
              "color": "rgb(140,86,75)"
            },
            {
              "description": "Hispanic",
              "count": 3869,
              "tested": 5725,
              "deaths": 41,
              "color": "rgb(214,39,40)"
            },
            {
              "description": "NH/PI*",
              "count": 8,
              "tested": 31,
              "deaths": 0,
              "color": "rgb(127,127,127)"
            },
            {
              "description": "AI/AN**",
              "count": 13,
              "tested": 48,
              "deaths": 1,
              "color": "rgb(31,119,180)"
            }
          ]
        }
      },
      {
        "age_group": "50-59",
        "count": 12793,
        "tested": 59717,
        "deaths": 250,
        "demographics": {
          "race": [
            {
              "description": "White",
              "count": 2713,
              "tested": 14018,
              "deaths": 50,
              "color": "rgb(31,119,180)"
            },
            {
              "description": "Black",
              "count": 2627,
              "tested": 6989,
              "deaths": 99,
              "color": "rgb(31,119,180)"
            },
            {
              "description": "Left Blank",
              "count": 3262,
              "tested": 30418,
              "deaths": 13,
              "color": "rgb(255,127,14)"
            },
            {
              "description": "Other",
              "count": 545,
              "tested": 2598,
              "deaths": 2,
              "color": "rgb(148,103,189)"
            },
            {
              "description": "Asian",
              "count": 385,
              "tested": 1139,
              "deaths": 10,
              "color": "rgb(140,86,75)"
            },
            {
              "description": "Hispanic",
              "count": 3218,
              "tested": 4474,
              "deaths": 74,
              "color": "rgb(214,39,40)"
            },
            {
              "description": "NH/PI*",
              "count": 16,
              "tested": 33,
              "deaths": 1,
              "color": "rgb(127,127,127)"
            },
            {
              "description": "AI/AN**",
              "count": 27,
              "tested": 48,
              "deaths": 1,
              "color": "rgb(31,119,180)"
            }
          ]
        }
      },
      {
        "age_group": "60-69",
        "count": 9110,
        "tested": 48879,
        "deaths": 527,
        "demographics": {
          "race": [
            {
              "description": "White",
              "count": 2426,
              "tested": 13660,
              "deaths": 162,
              "color": "rgb(31,119,180)"
            },
            {
              "description": "Black",
              "count": 2129,
              "tested": 6359,
              "deaths": 231,
              "color": "rgb(31,119,180)"
            },
            {
              "description": "Left Blank",
              "count": 2229,
              "tested": 23746,
              "deaths": 13,
              "color": "rgb(255,127,14)"
            },
            {
              "description": "Other",
              "count": 314,
              "tested": 1724,
              "deaths": 5,
              "color": "rgb(148,103,189)"
            },
            {
              "description": "Asian",
              "count": 331,
              "tested": 891,
              "deaths": 18,
              "color": "rgb(140,86,75)"
            },
            {
              "description": "Hispanic",
              "count": 1658,
              "tested": 2449,
              "deaths": 97,
              "color": "rgb(214,39,40)"
            },
            {
              "description": "NH/PI*",
              "count": 12,
              "tested": 18,
              "deaths": 0,
              "color": "rgb(127,127,127)"
            },
            {
              "description": "AI/AN**",
              "count": 11,
              "tested": 32,
              "deaths": 1,
              "color": "rgb(31,119,180)"
            }
          ]
        }
      },
      {
        "age_group": "70-79",
        "count": 5213,
        "tested": 28979,
        "deaths": 745,
        "demographics": {
          "race": [
            {
              "description": "White",
              "count": 1716,
              "tested": 9764,
              "deaths": 313,
              "color": "rgb(31,119,180)"
            },
            {
              "description": "Black",
              "count": 1429,
              "tested": 3863,
              "deaths": 275,
              "color": "rgb(31,119,180)"
            },
            {
              "description": "Left Blank",
              "count": 1130,
              "tested": 12835,
              "deaths": 22,
              "color": "rgb(255,127,14)"
            },
            {
              "description": "Other",
              "count": 149,
              "tested": 957,
              "deaths": 7,
              "color": "rgb(148,103,189)"
            },
            {
              "description": "Asian",
              "count": 167,
              "tested": 478,
              "deaths": 33,
              "color": "rgb(140,86,75)"
            },
            {
              "description": "Hispanic",
              "count": 605,
              "tested": 1039,
              "deaths": 93,
              "color": "rgb(214,39,40)"
            },
            {
              "description": "NH/PI*",
              "count": 5,
              "tested": 13,
              "deaths": 1,
              "color": "rgb(127,127,127)"
            },
            {
              "description": "AI/AN**",
              "count": 12,
              "tested": 30,
              "deaths": 1,
              "color": "rgb(31,119,180)"
            }
          ]
        }
      },
      {
        "age_group": "80+",
        "count": 5179,
        "tested": 23381,
        "deaths": 1287,
        "demographics": {
          "race": [
            {
              "description": "White",
              "count": 2193,
              "tested": 9373,
              "deaths": 719,
              "color": "rgb(31,119,180)"
            },
            {
              "description": "Black",
              "count": 1030,
              "tested": 2455,
              "deaths": 319,
              "color": "rgb(31,119,180)"
            },
            {
              "description": "Left Blank",
              "count": 1251,
              "tested": 9765,
              "deaths": 48,
              "color": "rgb(255,127,14)"
            },
            {
              "description": "Other",
              "count": 101,
              "tested": 679,
              "deaths": 10,
              "color": "rgb(148,103,189)"
            },
            {
              "description": "Asian",
              "count": 172,
              "tested": 406,
              "deaths": 57,
              "color": "rgb(140,86,75)"
            },
            {
              "description": "Hispanic",
              "count": 421,
              "tested": 672,
              "deaths": 133,
              "color": "rgb(214,39,40)"
            },
            {
              "description": "NH/PI*",
              "count": 6,
              "tested": 16,
              "deaths": 0,
              "color": "rgb(127,127,127)"
            },
            {
              "description": "AI/AN**",
              "count": 5,
              "tested": 15,
              "deaths": 1,
              "color": "rgb(31,119,180)"
            }
          ]
        }
      }
    ],
    "race": [
      {
        "description": "White",
        "count": 14809,
        "tested": 83108,
        "deaths": 1262,
        "color": "rgb(31,119,180)"
      },
      {
        "description": "Black",
        "count": 13277,
        "tested": 38063,
        "deaths": 998,
        "color": "rgb(255,127,14)"
      },
      {
        "description": "Left Blank",
        "count": 17765,
        "tested": 189000,
        "deaths": 100,
        "color": "rgb(44,160,44)"
      },
      {
        "description": "Other",
        "count": 2766,
        "tested": 15561,
        "deaths": 25,
        "color": "rgb(148,103,189)"
      },
      {
        "description": "Asian",
        "count": 2203,
        "tested": 6855,
        "deaths": 124,
        "color": "rgb(140,86,75)"
      },
      {
        "description": "Hispanic",
        "count": 17240,
        "tested": 28213,
        "deaths": 457,
        "color": "rgb(214,39,40)"
      },
      {
        "description": "NH/PI*",
        "count": 73,
        "tested": 185,
        "deaths": 3,
        "color": "rgb(127,127,127)"
      },
      {
        "description": "AI/AN**",
        "count": 99,
        "tested": 275,
        "deaths": 5,
        "color": "rgb(31,119,180)"
      }
    ],
    "gender": [
      {
        "description": "Male",
        "count": 32692,
        "tested": 143527,
        "deaths": 1682,
        "color": "rgb(31,119,180)"
      },
      {
        "description": "Female",
        "count": 34173,
        "tested": 185641,
        "deaths": 1288,
        "color": "rgb(255,127,14)"
      },
      {
        "description": "Unknown/Left Blank",
        "count": 1367,
        "tested": 32092,
        "deaths": 4,
        "color": "rgb(44,160,44)"
      }
    ]
  }
}
