{
  "LastUpdateDate": {
    "year": 2020,
    "month": 5,
    "day": 10
  },
  "characteristics_by_county": {
    "values": [
      {
        "County": "Illinois",
        "confirmed_cases": 77741,
        "total_tested": 429984,
        "deaths": 3406,
        "lat": 39.839888,
        "lon": -89.510168
      },
      {
        "County": "Adams",
        "confirmed_cases": 41,
        "deaths": 1,
        "total_tested": 1553,
        "lat": 40.057800,
        "lon": -91.135300
      },
      {
        "County": "Alexander",
        "confirmed_cases": 7,
        "deaths": 0,
        "total_tested": 75,
        "lat": 37.167000,
        "lon": -89.360600
      },
      {
        "County": "Bond",
        "confirmed_cases": 8,
        "deaths": 1,
        "total_tested": 162,
        "lat": 38.903000,
        "lon": -89.474200
      },
      {
        "County": "Boone",
        "confirmed_cases": 193,
        "deaths": 11,
        "total_tested": 806,
        "lat": 42.348500,
        "lon": -88.826300
      },
      {
        "County": "Brown",
        "confirmed_cases": 8,
        "deaths": 0,
        "total_tested": 234,
        "lat": 39.938000,
        "lon": -90.715300
      },
      {
        "County": "Bureau",
        "confirmed_cases": 14,
        "deaths": 1,
        "total_tested": 401,
        "lat": 41.359900,
        "lon": -89.474200
      },
      {
        "County": "Calhoun",
        "confirmed_cases": 1,
        "deaths": 0,
        "total_tested": 36,
        "lat": 39.173300,
        "lon": -90.658300
      },
      {
        "County": "Carroll",
        "confirmed_cases": 11,
        "deaths": 2,
        "total_tested": 101,
        "lat": 42.038600,
        "lon": -89.962700
      },
      {
        "County": "Cass",
        "confirmed_cases": 56,
        "deaths": 0,
        "total_tested": 547,
        "lat": 39.939900,
        "lon": -90.262000
      },
      {
        "County": "Champaign",
        "confirmed_cases": 263,
        "deaths": 6,
        "total_tested": 5094,
        "lat": 40.213900,
        "lon": -88.246100
      },
      {
        "County": "Chicago",
        "confirmed_cases": 30950,
        "deaths": 1337,
        "total_tested": 130868,
        "lat": 41.789896,
        "lon": -87.627734
      },
      {
        "County": "Christian",
        "confirmed_cases": 29,
        "deaths": 4,
        "total_tested": 467,
        "lat": 39.567200,
        "lon": -89.322700
      },
      {
        "County": "Clark",
        "confirmed_cases": 8,
        "deaths": 0,
        "total_tested": 117,
        "lat": 39.382400,
        "lon": -87.776300
      },
      {
        "County": "Clay",
        "confirmed_cases": 2,
        "deaths": 0,
        "total_tested": 155,
        "lat": 38.727900,
        "lon": -88.556500
      },
      {
        "County": "Clinton",
        "confirmed_cases": 126,
        "deaths": 10,
        "total_tested": 789,
        "lat": 38.568400,
        "lon": -89.625200
      },
      {
        "County": "Coles",
        "confirmed_cases": 24,
        "deaths": 1,
        "total_tested": 464,
        "lat": 39.556000,
        "lon": -88.246100
      },
      {
        "County": "Cook",
        "confirmed_cases": 21705,
        "deaths": 980,
        "total_tested": 99404,
        "lat": 42.050784,
        "lon": -87.963759
      },
      {
        "County": "Crawford",
        "confirmed_cases": 10,
        "deaths": 0,
        "total_tested": 195,
        "lat": 41.833000,
        "lon": -88.710900
      },
      {
        "County": "Cumberland",
        "confirmed_cases": 4,
        "deaths": 0,
        "total_tested": 77,
        "lat": 39.265400,
        "lon": -88.207200
      },
      {
        "County": "De Witt",
        "confirmed_cases": 3,
        "deaths": 0,
        "total_tested": 290,
        "lat": 40.181000,
        "lon": -88.903100
      },
      {
        "County": "DeKalb",
        "confirmed_cases": 177,
        "deaths": 2,
        "total_tested": 1563,
        "lat": 41.833000,
        "lon": -88.710900
      },
      {
        "County": "Douglas",
        "confirmed_cases": 20,
        "deaths": 0,
        "total_tested": 303,
        "lat": 39.761800,
        "lon": -88.207200
      },
      {
        "County": "DuPage",
        "confirmed_cases": 4603,
        "deaths": 248,
        "total_tested": 25429,
        "lat": 41.824400,
        "lon": -88.090100
      },
      {
        "County": "Edgar",
        "confirmed_cases": 0,
        "deaths": 0,
        "total_tested": 143,
        "lat": 39.713100,
        "lon": -87.776300
      },
      {
        "County": "Edwards",
        "confirmed_cases": 0,
        "deaths": 0,
        "total_tested": 71,
        "lat": 38.426800,
        "lon": -88.051000
      },
      {
        "County": "Effingham",
        "confirmed_cases": 6,
        "deaths": 1,
        "total_tested": 163,
        "lat": 39.062200,
        "lon": -88.556500
      },
      {
        "County": "Fayette",
        "confirmed_cases": 17,
        "deaths": 2,
        "total_tested": 213,
        "lat": 39.067000,
        "lon": -89.017900
      },
      {
        "County": "Ford",
        "confirmed_cases": 14,
        "deaths": 1,
        "total_tested": 243,
        "lat": 40.498900,
        "lon": -88.207200
      },
      {
        "County": "Franklin",
        "confirmed_cases": 10,
        "deaths": 0,
        "total_tested": 704,
        "lat": 38.015700,
        "lon": -88.903100
      },
      {
        "County": "Fulton",
        "confirmed_cases": 3,
        "deaths": 0,
        "total_tested": 265,
        "lat": 40.553200,
        "lon": -90.224500
      },
      {
        "County": "Gallatin",
        "confirmed_cases": 2,
        "deaths": 0,
        "total_tested": 47,
        "lat": 37.710800,
        "lon": -88.246100
      },
      {
        "County": "Greene",
        "confirmed_cases": 4,
        "deaths": 0,
        "total_tested": 121,
        "lat": 39.403000,
        "lon": -90.374800
      },
      {
        "County": "Grundy",
        "confirmed_cases": 58,
        "deaths": 1,
        "total_tested": 823,
        "lat": 41.350100,
        "lon": -88.401600
      },
      {
        "County": "Hamilton",
        "confirmed_cases": 2,
        "deaths": 0,
        "total_tested": 90,
        "lat": 38.054300,
        "lon": -88.556500
      },
      {
        "County": "Hancock",
        "confirmed_cases": 12,
        "deaths": 0,
        "total_tested": 339,
        "lat": 40.384900,
        "lon": -91.135300
      },
      {
        "County": "Hardin",
        "confirmed_cases": 1,
        "deaths": 0,
        "total_tested": 25,
        "lat": 37.499500,
        "lon": -88.362800
      },
      {
        "County": "Henderson",
        "confirmed_cases": 6,
        "deaths": 0,
        "total_tested": 112,
        "lat": 40.833600,
        "lon": -90.943800
      },
      {
        "County": "Henry",
        "confirmed_cases": 58,
        "deaths": 0,
        "total_tested": 737,
        "lat": 41.361100,
        "lon": -90.074700
      },
      {
        "County": "Iroquois",
        "confirmed_cases": 96,
        "deaths": 2,
        "total_tested": 606,
        "lat": 40.774000,
        "lon": -87.697600
      },
      {
        "County": "Jackson",
        "confirmed_cases": 167,
        "deaths": 10,
        "total_tested": 1219,
        "lat": 37.721800,
        "lon": -89.322700
      },
      {
        "County": "Jasper",
        "confirmed_cases": 46,
        "deaths": 6,
        "total_tested": 253,
        "lat": 39.055500,
        "lon": -88.090100
      },
      {
        "County": "Jefferson",
        "confirmed_cases": 97,
        "deaths": 15,
        "total_tested": 803,
        "lat": 38.226700,
        "lon": -88.864700
      },
      {
        "County": "Jersey",
        "confirmed_cases": 17,
        "deaths": 1,
        "total_tested": 151,
        "lat": 39.070500,
        "lon": -90.374800
      },
      {
        "County": "Jo Daviess",
        "confirmed_cases": 18,
        "deaths": 0,
        "total_tested": 284,
        "lat": 42.314900,
        "lon": -90.224500
      },
      {
        "County": "Johnson",
        "confirmed_cases": 4,
        "deaths": 0,
        "total_tested": 115,
        "lat": 37.420400,
        "lon": -88.903100
      },
      {
        "County": "Kane",
        "confirmed_cases": 3003,
        "deaths": 89,
        "total_tested": 12104,
        "lat": 41.987900,
        "lon": -88.401600
      },
      {
        "County": "Kankakee",
        "confirmed_cases": 540,
        "deaths": 30,
        "total_tested": 3600,
        "lat": 41.179100,
        "lon": -87.776300
      },
      {
        "County": "Kendall",
        "confirmed_cases": 421,
        "deaths": 12,
        "total_tested": 2213,
        "lat": 41.550700,
        "lon": -88.440400
      },
      {
        "County": "Knox",
        "confirmed_cases": 73,
        "deaths": 0,
        "total_tested": 999,
        "lat": 40.877600,
        "lon": -90.224500
      },
      {
        "County": "Lake",
        "confirmed_cases": 5245,
        "deaths": 173,
        "total_tested": 19831,
        "lat": 42.368900,
        "lon": -87.827200
      },
      {
        "County": "LaSalle",
        "confirmed_cases": 105,
        "deaths": 5,
        "total_tested": 1695,
        "lat": 41.436400,
        "lon": -88.941400
      },
      {
        "County": "Lawrence",
        "confirmed_cases": 4,
        "deaths": 0,
        "total_tested": 176,
        "lat": 38.715800,
        "lon": -87.776300
      },
      {
        "County": "Lee",
        "confirmed_cases": 63,
        "deaths": 0,
        "total_tested": 714,
        "lat": 41.679000,
        "lon": -89.322700
      },
      {
        "County": "Livingston",
        "confirmed_cases": 24,
        "deaths": 1,
        "total_tested": 519,
        "lat": 40.868900,
        "lon": -88.556500
      },
      {
        "County": "Logan",
        "confirmed_cases": 9,
        "deaths": 0,
        "total_tested": 556,
        "lat": 40.061300,
        "lon": -89.322700
      },
      {
        "County": "Macon",
        "confirmed_cases": 144,
        "deaths": 15,
        "total_tested": 1450,
        "lat": 39.894900,
        "lon": -89.017900
      },
      {
        "County": "Macoupin",
        "confirmed_cases": 38,
        "deaths": 1,
        "total_tested": 801,
        "lat": 39.237500,
        "lon": -89.925300
      },
      {
        "County": "Madison",
        "confirmed_cases": 427,
        "deaths": 31,
        "total_tested": 2794,
        "lat": 38.904100,
        "lon": -89.925300
      },
      {
        "County": "Marion",
        "confirmed_cases": 44,
        "deaths": 0,
        "total_tested": 823,
        "lat": 38.731300,
        "lon": -88.864700
      },
      {
        "County": "Marshall",
        "confirmed_cases": 4,
        "deaths": 0,
        "total_tested": 127,
        "lat": 40.997300,
        "lon": -89.360600
      },
      {
        "County": "Mason",
        "confirmed_cases": 15,
        "deaths": 0,
        "total_tested": 322,
        "lat": 40.227100,
        "lon": -89.925300
      },
      {
        "County": "Massac",
        "confirmed_cases": 6,
        "deaths": 0,
        "total_tested": 117,
        "lat": 37.247800,
        "lon": -88.749400
      },
      {
        "County": "McDonough",
        "confirmed_cases": 49,
        "deaths": 2,
        "total_tested": 570,
        "lat": 40.388500,
        "lon": -90.677300
      },
      {
        "County": "McHenry",
        "confirmed_cases": 945,
        "deaths": 51,
        "total_tested": 5417,
        "lat": 42.304000,
        "lon": -88.401600
      },
      {
        "County": "McLean",
        "confirmed_cases": 117,
        "deaths": 3,
        "total_tested": 3458,
        "lat": 40.547800,
        "lon": -88.864700
      },
      {
        "County": "Menard",
        "confirmed_cases": 17,
        "deaths": 0,
        "total_tested": 261,
        "lat": 40.022100,
        "lon": -89.813000
      },
      {
        "County": "Mercer",
        "confirmed_cases": 12,
        "deaths": 0,
        "total_tested": 202,
        "lat": 41.198500,
        "lon": -90.677300
      },
      {
        "County": "Monroe",
        "confirmed_cases": 79,
        "deaths": 11,
        "total_tested": 314,
        "lat": 38.274300,
        "lon": -90.187000
      },
      {
        "County": "Montgomery",
        "confirmed_cases": 34,
        "deaths": 1,
        "total_tested": 656,
        "lat": 39.236400,
        "lon": -89.474200
      },
      {
        "County": "Morgan",
        "confirmed_cases": 30,
        "deaths": 1,
        "total_tested": 563,
        "lat": 39.734100,
        "lon": -90.224500
      },
      {
        "County": "Moultrie",
        "confirmed_cases": 6,
        "deaths": 0,
        "total_tested": 94,
        "lat": 39.602100,
        "lon": -88.595200
      },
      {
        "County": "Ogle",
        "confirmed_cases": 149,
        "deaths": 1,
        "total_tested": 1425,
        "lat": 41.997000,
        "lon": -89.322700
      },
      {
        "County": "Out Of State",
        "confirmed_cases": 79,
        "deaths": 2,
        "total_tested": 1142,
        "lat": 0.000000,
        "lon": 0.000000
      },
      {
        "County": "Peoria",
        "confirmed_cases": 139,
        "deaths": 5,
        "total_tested": 3806,
        "lat": 40.715600,
        "lon": -89.775500
      },
      {
        "County": "Perry",
        "confirmed_cases": 38,
        "deaths": 0,
        "total_tested": 440,
        "lat": 38.061200,
        "lon": -89.322700
      },
      {
        "County": "Piatt",
        "confirmed_cases": 7,
        "deaths": 0,
        "total_tested": 273,
        "lat": 40.054400,
        "lon": -88.855650
      },
      {
        "County": "Pike",
        "confirmed_cases": 1,
        "deaths": 0,
        "total_tested": 101,
        "lat": 39.566200,
        "lon": -90.829400
      },
      {
        "County": "Pope",
        "confirmed_cases": 1,
        "deaths": 0,
        "total_tested": 26,
        "lat": 37.417100,
        "lon": -88.595200
      },
      {
        "County": "Pulaski",
        "confirmed_cases": 27,
        "deaths": 0,
        "total_tested": 108,
        "lat": 37.251200,
        "lon": -89.132500
      },
      {
        "County": "Putnam",
        "confirmed_cases": 0,
        "deaths": 0,
        "total_tested": 63,
        "lat": 41.238500,
        "lon": -89.284700
      },
      {
        "County": "Randolph",
        "confirmed_cases": 220,
        "deaths": 2,
        "total_tested": 1105,
        "lat": 38.062900,
        "lon": -89.775500
      },
      {
        "County": "Richland",
        "confirmed_cases": 3,
        "deaths": 0,
        "total_tested": 373,
        "lat": 38.721300,
        "lon": -88.090100
      },
      {
        "County": "Rock Island",
        "confirmed_cases": 515,
        "deaths": 16,
        "total_tested": 2486,
        "lat": 41.509500,
        "lon": -90.578700
      },
      {
        "County": "Saline",
        "confirmed_cases": 5,
        "deaths": 0,
        "total_tested": 266,
        "lat": 37.715000,
        "lon": -88.556500
      },
      {
        "County": "Sangamon",
        "confirmed_cases": 258,
        "deaths": 19,
        "total_tested": 5369,
        "lat": 39.733700,
        "lon": -89.625200
      },
      {
        "County": "Schuyler",
        "confirmed_cases": 7,
        "deaths": 0,
        "total_tested": 146,
        "lat": 40.184500,
        "lon": -90.639400
      },
      {
        "County": "Scott",
        "confirmed_cases": 0,
        "deaths": 0,
        "total_tested": 76,
        "lat": 39.609500,
        "lon": -90.488000
      },
      {
        "County": "Shelby",
        "confirmed_cases": 10,
        "deaths": 1,
        "total_tested": 143,
        "lat": 39.398100,
        "lon": -88.864700
      },
      {
        "County": "St. Clair",
        "confirmed_cases": 711,
        "deaths": 50,
        "total_tested": 3765,
        "lat": 38.400800,
        "lon": -89.925300
      },
      {
        "County": "Stark",
        "confirmed_cases": 1,
        "deaths": 0,
        "total_tested": 65,
        "lat": 41.079600,
        "lon": -89.813000
      },
      {
        "County": "Stephenson",
        "confirmed_cases": 97,
        "deaths": 0,
        "total_tested": 547,
        "lat": 42.314500,
        "lon": -89.625200
      },
      {
        "County": "Tazewell",
        "confirmed_cases": 59,
        "deaths": 4,
        "total_tested": 2612,
        "lat": 40.552200,
        "lon": -89.474200
      },
      {
        "County": "Unassigned",
        "confirmed_cases": 84,
        "deaths": 0,
        "total_tested": 9446,
        "lat": 39.839888,
        "lon": -89.510168
      },
      {
        "County": "Union",
        "confirmed_cases": 63,
        "deaths": 1,
        "total_tested": 502,
        "lat": 37.508700,
        "lon": -89.284700
      },
      {
        "County": "Vermilion",
        "confirmed_cases": 25,
        "deaths": 1,
        "total_tested": 991,
        "lat": 40.122500,
        "lon": -87.697600
      },
      {
        "County": "Wabash",
        "confirmed_cases": 1,
        "deaths": 0,
        "total_tested": 165,
        "lat": 38.422600,
        "lon": -87.815700
      },
      {
        "County": "Warren",
        "confirmed_cases": 102,
        "deaths": 0,
        "total_tested": 412,
        "lat": 40.875900,
        "lon": -90.677300
      },
      {
        "County": "Washington",
        "confirmed_cases": 15,
        "deaths": 0,
        "total_tested": 214,
        "lat": 38.398900,
        "lon": -89.322700
      },
      {
        "County": "Wayne",
        "confirmed_cases": 3,
        "deaths": 0,
        "total_tested": 211,
        "lat": 38.390000,
        "lon": -88.401600
      },
      {
        "County": "White",
        "confirmed_cases": 2,
        "deaths": 0,
        "total_tested": 188,
        "lat": 38.050100,
        "lon": -88.246100
      },
      {
        "County": "Whiteside",
        "confirmed_cases": 104,
        "deaths": 6,
        "total_tested": 1245,
        "lat": 41.760600,
        "lon": -89.850500
      },
      {
        "County": "Will",
        "confirmed_cases": 3684,
        "deaths": 202,
        "total_tested": 19769,
        "lat": 41.505500,
        "lon": -88.090100
      },
      {
        "County": "Williamson",
        "confirmed_cases": 44,
        "deaths": 1,
        "total_tested": 1190,
        "lat": 37.718300,
        "lon": -88.864700
      },
      {
        "County": "Winnebago",
        "confirmed_cases": 917,
        "deaths": 25,
        "total_tested": 6344,
        "lat": 42.312100,
        "lon": -89.170600
      },
      {
        "County": "Woodford",
        "confirmed_cases": 15,
        "deaths": 1,
        "total_tested": 501,
        "lat": 40.712900,
        "lon": -89.170600
      }
    ]
  },

  "state_testing_results": {
    "values": [
      {
        "testDate": "3/10/2020",
        "total_tested": 326,
        "confirmed_cases": 20,
        "deaths": 0
      },
      {
        "testDate": "3/11/2020",
        "total_tested": 367,
        "confirmed_cases": 25,
        "deaths": 0
      },
      {
        "testDate": "3/12/2020",
        "total_tested": 418,
        "confirmed_cases": 32,
        "deaths": 0
      },
      {
        "testDate": "3/13/2020",
        "total_tested": 444,
        "confirmed_cases": 46,
        "deaths": 0
      },
      {
        "testDate": "3/14/2020",
        "total_tested": 708,
        "confirmed_cases": 64,
        "deaths": 0
      },
      {
        "testDate": "3/15/2020",
        "total_tested": 932,
        "confirmed_cases": 93,
        "deaths": 0
      },
      {
        "testDate": "3/16/2020",
        "total_tested": 1143,
        "confirmed_cases": 105,
        "deaths": 0
      },
      {
        "testDate": "3/17/2020",
        "total_tested": 1500,
        "confirmed_cases": 160,
        "deaths": 1
      },
      {
        "testDate": "3/18/2020",
        "total_tested": 2052,
        "confirmed_cases": 288,
        "deaths": 3
      },
      {
        "testDate": "3/19/2020",
        "total_tested": 3151,
        "confirmed_cases": 422,
        "deaths": 4
      },
      {
        "testDate": "3/20/2020",
        "total_tested": 4286,
        "confirmed_cases": 585,
        "deaths": 5
      },
      {
        "testDate": "3/21/2020",
        "total_tested": 6247,
        "confirmed_cases": 753,
        "deaths": 6
      },
      {
        "testDate": "3/22/2020",
        "total_tested": 8374,
        "confirmed_cases": 1046,
        "deaths": 9
      },
      {
        "testDate": "3/23/2020",
        "total_tested": 9868,
        "confirmed_cases": 1283,
        "deaths": 12
      },
      {
        "testDate": "3/24/2020",
        "total_tested": 11485,
        "confirmed_cases": 1535,
        "deaths": 16
      },
      {
        "testDate": "3/25/2020",
        "total_tested": 14209,
        "confirmed_cases": 1865,
        "deaths": 19
      },
      {
        "testDate": "3/26/2020",
        "total_tested": 16631,
        "confirmed_cases": 2538,
        "deaths": 26
      },
      {
        "testDate": "3/27/2020",
        "total_tested": 21542,
        "confirmed_cases": 3026,
        "deaths": 34
      },
      {
        "testDate": "3/28/2020",
        "total_tested": 25429,
        "confirmed_cases": 3491,
        "deaths": 47
      },
      {
        "testDate": "3/29/2020",
        "total_tested": 27762,
        "confirmed_cases": 4596,
        "deaths": 65
      },
      {
        "testDate": "3/30/2020",
        "total_tested": 30446,
        "confirmed_cases": 5056,
        "deaths": 72
      },
      {
        "testDate": "3/31/2020",
        "total_tested": 35225,
        "confirmed_cases": 5994,
        "deaths": 99
      },
      {
        "testDate": "4/1/2020",
        "total_tested": 40384,
        "confirmed_cases": 6980,
        "deaths": 141
      },
      {
        "testDate": "4/2/2020",
        "total_tested": 43656,
        "confirmed_cases": 7695,
        "deaths": 157
      },
      {
        "testDate": "4/3/2020",
        "total_tested": 48048,
        "confirmed_cases": 8904,
        "deaths": 210
      },
      {
        "testDate": "4/4/2020",
        "total_tested": 53581,
        "confirmed_cases": 10357,
        "deaths": 243
      },
      {
        "testDate": "4/5/2020",
        "total_tested": 58983,
        "confirmed_cases": 11256,
        "deaths": 274
      },
      {
        "testDate": "4/6/2020",
        "total_tested": 62942,
        "confirmed_cases": 12262,
        "deaths": 307
      },
      {
        "testDate": "4/7/2020",
        "total_tested": 68732,
        "confirmed_cases": 13549,
        "deaths": 380
      },
      {
        "testDate": "4/8/2020",
        "total_tested": 75066,
        "confirmed_cases": 15078,
        "deaths": 462
      },
      {
        "testDate": "4/9/2020",
        "total_tested": 80857,
        "confirmed_cases": 16422,
        "deaths": 528
      },
      {
        "testDate": "4/10/2020",
        "total_tested": 87527,
        "confirmed_cases": 17887,
        "deaths": 596
      },
      {
        "testDate": "4/11/2020",
        "total_tested": 92779,
        "confirmed_cases": 19180,
        "deaths": 677
      },
      {
        "testDate": "4/12/2020",
        "total_tested": 100735,
        "confirmed_cases": 20852,
        "deaths": 720
      },
      {
        "testDate": "4/13/2020",
        "total_tested": 105768,
        "confirmed_cases": 22025,
        "deaths": 794
      },
      {
        "testDate": "4/14/2020",
        "total_tested": 110616,
        "confirmed_cases": 23247,
        "deaths": 868
      },
      {
        "testDate": "4/15/2020",
        "total_tested": 116929,
        "confirmed_cases": 24593,
        "deaths": 948
      },
      {
        "testDate": "4/16/2020",
        "total_tested": 122589,
        "confirmed_cases": 25733,
        "deaths": 1072
      },
      {
        "testDate": "4/17/2020",
        "total_tested": 130163,
        "confirmed_cases": 27575,
        "deaths": 1134
      },
      {
        "testDate": "4/18/2020",
        "total_tested": 137404,
        "confirmed_cases": 29160,
        "deaths": 1259
      },
      {
        "testDate": "4/19/2020",
        "total_tested": 143318,
        "confirmed_cases": 30357,
        "deaths": 1290
      },
      {
        "testDate": "4/20/2020",
        "total_tested": 148358,
        "confirmed_cases": 31508,
        "deaths": 1349
      },
      {
        "testDate": "4/21/2020",
        "total_tested": 154997,
        "confirmed_cases": 33059,
        "deaths": 1468
      },
      {
        "testDate": "4/22/2020",
        "total_tested": 164346,
        "confirmed_cases": 35108,
        "deaths": 1565
      },
      {
        "testDate": "4/23/2020",
        "total_tested": 173508,
        "confirmed_cases": 36934,
        "deaths": 1688
      },
      {
        "testDate": "4/24/2020",
        "total_tested": 189632,
        "confirmed_cases": 39658,
        "deaths": 1795
      },
      {
        "testDate": "4/25/2020",
        "total_tested": 201617,
        "confirmed_cases": 41777,
        "deaths": 1874
      },
      {
        "testDate": "4/26/2020",
        "total_tested": 214952,
        "confirmed_cases": 43903,
        "deaths": 1933
      },
      {
        "testDate": "4/27/2020",
        "total_tested": 227628,
        "confirmed_cases": 45883,
        "deaths": 1983
      },
      {
        "testDate": "4/28/2020",
        "total_tested": 242189,
        "confirmed_cases": 48102,
        "deaths": 2125
      },
      {
        "testDate": "4/29/2020",
        "total_tested": 256667,
        "confirmed_cases": 50355,
        "deaths": 2215
      },
      {
        "testDate": "4/30/2020",
        "total_tested": 269867,
        "confirmed_cases": 52918,
        "deaths": 2355
      },
      {
        "testDate": "5/1/2020",
        "total_tested": 284688,
        "confirmed_cases": 56055,
        "deaths": 2457
      },
      {
        "testDate": "5/2/2020",
        "total_tested": 299896,
        "confirmed_cases": 58505,
        "deaths": 2559
      },
      {
        "testDate": "5/3/2020",
        "total_tested": 319313,
        "confirmed_cases": 61499,
        "deaths": 2618
      },
      {
        "testDate": "5/4/2020",
        "total_tested": 333147,
        "confirmed_cases": 63840,
        "deaths": 2662
      },
      {
        "testDate": "5/5/2020",
        "total_tested": 346286,
        "confirmed_cases": 65962,
        "deaths": 2838
      },
      {
        "testDate": "5/6/2020",
        "total_tested": 361260,
        "confirmed_cases": 68232,
        "deaths": 2974
      },
      {
        "testDate": "5/7/2020",
        "total_tested": 379043,
        "confirmed_cases": 70873,
        "deaths": 3111
      },
      {
        "testDate": "5/8/2020",
        "total_tested": 399714,
        "confirmed_cases": 73760,
        "deaths": 3241
      },
      {
        "testDate": "5/9/2020",
        "total_tested": 416331,
        "confirmed_cases": 76085,
        "deaths": 3349
      },
      {
        "testDate": "5/10/2020",
        "total_tested": 429984,
        "confirmed_cases": 77741,
        "deaths": 3406
      }
    ]
  },
  "demographics": {
    "age": [
      {
        "age_group": "Unknown",
        "count": 62,
        "tested": 28076,
        "deaths": 0,
        "demographics": {
          "race": [
            {
              "description": "White",
              "count": 3,
              "tested": 77,
              "deaths": 0,
              "color": "rgb(31,119,180)"
            },
            {
              "description": "Black",
              "count": 1,
              "tested": 3,
              "deaths": 0,
              "color": "rgb(31,119,180)"
            },
            {
              "description": "Left Blank",
              "count": 41,
              "tested": 27919,
              "deaths": 0,
              "color": "rgb(255,127,14)"
            },
            {
              "description": "Other",
              "count": 1,
              "tested": 9,
              "deaths": 0,
              "color": "rgb(148,103,189)"
            },
            {
              "description": "Asian",
              "count": 0,
              "tested": 7,
              "deaths": 0,
              "color": "rgb(140,86,75)"
            },
            {
              "description": "Hispanic",
              "count": 16,
              "tested": 61,
              "deaths": 0,
              "color": "rgb(214,39,40)"
            },
            {
              "description": "NH/PI*",
              "count": 0,
              "tested": 0,
              "deaths": 0,
              "color": "rgb(127,127,127)"
            },
            {
              "description": "AI/AN**",
              "count": 0,
              "tested": 0,
              "deaths": 0,
              "color": "rgb(31,119,180)"
            }
          ]
        }
      },
      {
        "age_group": "<20",
        "count": 3649,
        "tested": 22956,
        "deaths": 2,
        "demographics": {
          "race": [
            {
              "description": "White",
              "count": 409,
              "tested": 5005,
              "deaths": 1,
              "color": "rgb(31,119,180)"
            },
            {
              "description": "Black",
              "count": 468,
              "tested": 2700,
              "deaths": 1,
              "color": "rgb(31,119,180)"
            },
            {
              "description": "Left Blank",
              "count": 1020,
              "tested": 9702,
              "deaths": 0,
              "color": "rgb(255,127,14)"
            },
            {
              "description": "Other",
              "count": 205,
              "tested": 1195,
              "deaths": 0,
              "color": "rgb(148,103,189)"
            },
            {
              "description": "Asian",
              "count": 64,
              "tested": 401,
              "deaths": 0,
              "color": "rgb(140,86,75)"
            },
            {
              "description": "Hispanic",
              "count": 1473,
              "tested": 3930,
              "deaths": 0,
              "color": "rgb(214,39,40)"
            },
            {
              "description": "NH/PI*",
              "count": 5,
              "tested": 8,
              "deaths": 0,
              "color": "rgb(127,127,127)"
            },
            {
              "description": "AI/AN**",
              "count": 5,
              "tested": 15,
              "deaths": 0,
              "color": "rgb(31,119,180)"
            }
          ]
        }
      },
      {
        "age_group": "20-29",
        "count": 11312,
        "tested": 55554,
        "deaths": 18,
        "demographics": {
          "race": [
            {
              "description": "White",
              "count": 1934,
              "tested": 11279,
              "deaths": 1,
              "color": "rgb(31,119,180)"
            },
            {
              "description": "Black",
              "count": 1745,
              "tested": 5365,
              "deaths": 8,
              "color": "rgb(31,119,180)"
            },
            {
              "description": "Left Blank",
              "count": 3096,
              "tested": 27566,
              "deaths": 1,
              "color": "rgb(255,127,14)"
            },
            {
              "description": "Other",
              "count": 511,
              "tested": 3117,
              "deaths": 0,
              "color": "rgb(148,103,189)"
            },
            {
              "description": "Asian",
              "count": 321,
              "tested": 1018,
              "deaths": 0,
              "color": "rgb(140,86,75)"
            },
            {
              "description": "Hispanic",
              "count": 3680,
              "tested": 7127,
              "deaths": 8,
              "color": "rgb(214,39,40)"
            },
            {
              "description": "NH/PI*",
              "count": 13,
              "tested": 39,
              "deaths": 0,
              "color": "rgb(127,127,127)"
            },
            {
              "description": "AI/AN**",
              "count": 12,
              "tested": 43,
              "deaths": 0,
              "color": "rgb(31,119,180)"
            }
          ]
        }
      },
      {
        "age_group": "30-39",
        "count": 12499,
        "tested": 67425,
        "deaths": 50,
        "demographics": {
          "race": [
            {
              "description": "White",
              "count": 1918,
              "tested": 14259,
              "deaths": 8,
              "color": "rgb(31,119,180)"
            },
            {
              "description": "Black",
              "count": 2041,
              "tested": 6348,
              "deaths": 25,
              "color": "rgb(31,119,180)"
            },
            {
              "description": "Left Blank",
              "count": 3517,
              "tested": 34331,
              "deaths": 1,
              "color": "rgb(255,127,14)"
            },
            {
              "description": "Other",
              "count": 552,
              "tested": 3618,
              "deaths": 0,
              "color": "rgb(148,103,189)"
            },
            {
              "description": "Asian",
              "count": 411,
              "tested": 1617,
              "deaths": 1,
              "color": "rgb(140,86,75)"
            },
            {
              "description": "Hispanic",
              "count": 4019,
              "tested": 7138,
              "deaths": 15,
              "color": "rgb(214,39,40)"
            },
            {
              "description": "NH/PI*",
              "count": 23,
              "tested": 49,
              "deaths": 0,
              "color": "rgb(127,127,127)"
            },
            {
              "description": "AI/AN**",
              "count": 18,
              "tested": 65,
              "deaths": 0,
              "color": "rgb(31,119,180)"
            }
          ]
        }
      },
      {
        "age_group": "40-49",
        "count": 14103,
        "tested": 66279,
        "deaths": 115,
        "demographics": {
          "race": [
            {
              "description": "White",
              "count": 2146,
              "tested": 12976,
              "deaths": 10,
              "color": "rgb(31,119,180)"
            },
            {
              "description": "Black",
              "count": 2425,
              "tested": 6833,
              "deaths": 44,
              "color": "rgb(31,119,180)"
            },
            {
              "description": "Left Blank",
              "count": 3759,
              "tested": 34027,
              "deaths": 3,
              "color": "rgb(255,127,14)"
            },
            {
              "description": "Other",
              "count": 633,
              "tested": 3373,
              "deaths": 1,
              "color": "rgb(148,103,189)"
            },
            {
              "description": "Asian",
              "count": 442,
              "tested": 1486,
              "deaths": 5,
              "color": "rgb(140,86,75)"
            },
            {
              "description": "Hispanic",
              "count": 4660,
              "tested": 7479,
              "deaths": 51,
              "color": "rgb(214,39,40)"
            },
            {
              "description": "NH/PI*",
              "count": 21,
              "tested": 45,
              "deaths": 0,
              "color": "rgb(127,127,127)"
            },
            {
              "description": "AI/AN**",
              "count": 17,
              "tested": 60,
              "deaths": 1,
              "color": "rgb(31,119,180)"
            }
          ]
        }
      },
      {
        "age_group": "50-59",
        "count": 14388,
        "tested": 70135,
        "deaths": 286,
        "demographics": {
          "race": [
            {
              "description": "White",
              "count": 2974,
              "tested": 16729,
              "deaths": 57,
              "color": "rgb(31,119,180)"
            },
            {
              "description": "Black",
              "count": 2797,
              "tested": 7951,
              "deaths": 109,
              "color": "rgb(31,119,180)"
            },
            {
              "description": "Left Blank",
              "count": 3672,
              "tested": 35209,
              "deaths": 13,
              "color": "rgb(255,127,14)"
            },
            {
              "description": "Other",
              "count": 604,
              "tested": 3025,
              "deaths": 2,
              "color": "rgb(148,103,189)"
            },
            {
              "description": "Asian",
              "count": 423,
              "tested": 1297,
              "deaths": 14,
              "color": "rgb(140,86,75)"
            },
            {
              "description": "Hispanic",
              "count": 3857,
              "tested": 5820,
              "deaths": 89,
              "color": "rgb(214,39,40)"
            },
            {
              "description": "NH/PI*",
              "count": 28,
              "tested": 43,
              "deaths": 1,
              "color": "rgb(127,127,127)"
            },
            {
              "description": "AI/AN**",
              "count": 33,
              "tested": 61,
              "deaths": 1,
              "color": "rgb(31,119,180)"
            }
          ]
        }
      },
      {
        "age_group": "60-69",
        "count": 10177,
        "tested": 57596,
        "deaths": 603,
        "demographics": {
          "race": [
            {
              "description": "White",
              "count": 2676,
              "tested": 16458,
              "deaths": 187,
              "color": "rgb(31,119,180)"
            },
            {
              "description": "Black",
              "count": 2261,
              "tested": 7238,
              "deaths": 250,
              "color": "rgb(31,119,180)"
            },
            {
              "description": "Left Blank",
              "count": 2535,
              "tested": 27667,
              "deaths": 16,
              "color": "rgb(255,127,14)"
            },
            {
              "description": "Other",
              "count": 358,
              "tested": 2041,
              "deaths": 7,
              "color": "rgb(148,103,189)"
            },
            {
              "description": "Asian",
              "count": 370,
              "tested": 1024,
              "deaths": 21,
              "color": "rgb(140,86,75)"
            },
            {
              "description": "Hispanic",
              "count": 1944,
              "tested": 3106,
              "deaths": 121,
              "color": "rgb(214,39,40)"
            },
            {
              "description": "NH/PI*",
              "count": 18,
              "tested": 22,
              "deaths": 0,
              "color": "rgb(127,127,127)"
            },
            {
              "description": "AI/AN**",
              "count": 15,
              "tested": 40,
              "deaths": 1,
              "color": "rgb(31,119,180)"
            }
          ]
        }
      },
      {
        "age_group": "70-79",
        "count": 5761,
        "tested": 34027,
        "deaths": 851,
        "demographics": {
          "race": [
            {
              "description": "White",
              "count": 1874,
              "tested": 11702,
              "deaths": 354,
              "color": "rgb(31,119,180)"
            },
            {
              "description": "Black",
              "count": 1530,
              "tested": 4385,
              "deaths": 311,
              "color": "rgb(31,119,180)"
            },
            {
              "description": "Left Blank",
              "count": 1266,
              "tested": 14955,
              "deaths": 23,
              "color": "rgb(255,127,14)"
            },
            {
              "description": "Other",
              "count": 170,
              "tested": 1126,
              "deaths": 9,
              "color": "rgb(148,103,189)"
            },
            {
              "description": "Asian",
              "count": 181,
              "tested": 558,
              "deaths": 35,
              "color": "rgb(140,86,75)"
            },
            {
              "description": "Hispanic",
              "count": 714,
              "tested": 1245,
              "deaths": 116,
              "color": "rgb(214,39,40)"
            },
            {
              "description": "NH/PI*",
              "count": 9,
              "tested": 22,
              "deaths": 1,
              "color": "rgb(127,127,127)"
            },
            {
              "description": "AI/AN**",
              "count": 17,
              "tested": 34,
              "deaths": 2,
              "color": "rgb(31,119,180)"
            }
          ]
        }
      },
      {
        "age_group": "80+",
        "count": 5790,
        "tested": 27936,
        "deaths": 1481,
        "demographics": {
          "race": [
            {
              "description": "White",
              "count": 2456,
              "tested": 11510,
              "deaths": 832,
              "color": "rgb(31,119,180)"
            },
            {
              "description": "Black",
              "count": 1101,
              "tested": 2756,
              "deaths": 358,
              "color": "rgb(31,119,180)"
            },
            {
              "description": "Left Blank",
              "count": 1438,
              "tested": 11635,
              "deaths": 57,
              "color": "rgb(255,127,14)"
            },
            {
              "description": "Other",
              "count": 108,
              "tested": 757,
              "deaths": 8,
              "color": "rgb(148,103,189)"
            },
            {
              "description": "Asian",
              "count": 196,
              "tested": 462,
              "deaths": 71,
              "color": "rgb(140,86,75)"
            },
            {
              "description": "Hispanic",
              "count": 476,
              "tested": 780,
              "deaths": 154,
              "color": "rgb(214,39,40)"
            },
            {
              "description": "NH/PI*",
              "count": 6,
              "tested": 18,
              "deaths": 0,
              "color": "rgb(127,127,127)"
            },
            {
              "description": "AI/AN**",
              "count": 9,
              "tested": 18,
              "deaths": 1,
              "color": "rgb(31,119,180)"
            }
          ]
        }
      }
    ],
    "race": [
      {
        "description": "White",
        "count": 16390,
        "tested": 99995,
        "deaths": 1450,
        "color": "rgb(31,119,180)"
      },
      {
        "description": "Black",
        "count": 14369,
        "tested": 43579,
        "deaths": 1106,
        "color": "rgb(255,127,14)"
      },
      {
        "description": "Left Blank",
        "count": 20344,
        "tested": 223011,
        "deaths": 114,
        "color": "rgb(44,160,44)"
      },
      {
        "description": "Other",
        "count": 3142,
        "tested": 18261,
        "deaths": 27,
        "color": "rgb(148,103,189)"
      },
      {
        "description": "Asian",
        "count": 2408,
        "tested": 7870,
        "deaths": 147,
        "color": "rgb(140,86,75)"
      },
      {
        "description": "Hispanic",
        "count": 20839,
        "tested": 36686,
        "deaths": 554,
        "color": "rgb(214,39,40)"
      },
      {
        "description": "NH/PI*",
        "count": 123,
        "tested": 246,
        "deaths": 2,
        "color": "rgb(127,127,127)"
      },
      {
        "description": "AI/AN**",
        "count": 126,
        "tested": 336,
        "deaths": 6,
        "color": "rgb(31,119,180)"
      }
    ],
    "gender": [
      {
        "description": "Male",
        "count": 37057,
        "tested": 169908,
        "deaths": 1915,
        "color": "rgb(31,119,180)"
      },
      {
        "description": "Female",
        "count": 38858,
        "tested": 218452,
        "deaths": 1482,
        "color": "rgb(255,127,14)"
      },
      {
        "description": "Unknown/Left Blank",
        "count": 1826,
        "tested": 41624,
        "deaths": 9,
        "color": "rgb(44,160,44)"
      }
    ]
  }
}
